name,lat,lon
Truganina_West_Industrial,-37.835,144.742
Cranbourne_South_Industrial,-38.10,145.28
Laverton_North,-37.865,144.785
Horsham_North_Industrial,-36.715,142.196
Brooklyn_Port_Area,-37.817,144.842
Geelong_North_Corio,-38.085,144.360
Ballarat_Wendouree,-37.545,143.825
Bendigo_East_Industrial,-36.735,144.305
Morwell_Latrobe_Valley,-38.235,146.435
Portland_Port_Industrial,-38.345,141.605
Warrnambool_North,-38.375,142.455
Shepparton_Industrial,-36.405,145.392
